property_one:
  house_number: 1
  property_type: apartment
  offer_type: sell
  lat : 52.53177508
  lng : 13.38815072
  street : ''
  city : Berlin
  zip_code : 10115
  price: 239500.0
property_two:
  house_number: 2
  property_type: apartment
  offer_type: sell
  lat : 52.53012550
  lng : 13.40550818
  street : ''
  city :  Berlin
  zip_code : 10119
  price: 142900.0
property_three:
  house_number: 3
  property_type: multi_family_house
  offer_type: sell
  lat : 52.52957350
  lng : 13.40841170
  street :  Angermünder Straße
  city :  Berlin
  zip_code : 10119
  price: 239500.0
property_four:
  house_number: 4
  property_type: apartment
  offer_type: rent
  lat : 52.53481660
  lng : 13.40120819
  street :  Fehrbelliner Straße
  city :  Berlin
  zip_code : 10119
  price: 142900.0
property_five:
  house_number: 5
  property_type: apartment
  offer_type: sell
  lat : 52.53825540
  lng : 13.39843730
  street :  Schönholzer Straße
  city :  Berlin
  zip_code : 10115
  price: 239500.0
property_six:
  house_number: 6
  property_type: apartment_maisonette
  offer_type: sell
  lat : 52.50692380
  lng : 13.42015470
  street :  Michaelkirchplatz
  city :  Berlin
  zip_code : 10179
  price: 142900.0
property_seven:
  house_number: 7
  property_type: apartment
  offer_type: rent
  lat : 52.50080650
  lng : 13.45573850
  street : ''
  city :  Berlin
  zip_code : 10245
  price: 239500.0
